[{"Name":"Ålesund","Location":{"lat":62.4661274,"lon":6.3557468},"Id":"2ff93cd2-51bb-4bf3-bbfc-5b4bad9b380b","CountryName":"Norway","Latitude":"62.4661274","Longitude":"6.3557468","Address":"Langelandsveien 51","PostalCode":"6010","PostalPlace":"Ålesund"},{"Name":"Ulset","Location":{"lat":60.4645834,"lon":5.3233926},"Id":"ba23688e-932a-4b04-8dbb-95c1e68e65e2","CountryName":"Norway","Latitude":"60.4645834","Longitude":"5.3233926","Address":"Åsane Senter 37","PostalCode":"5116","PostalPlace":"Ulset"},{"Name":"Ålesund","Location":{"lat":62.465188,"lon":6.351728},"Id":"9c35d2f8-18c8-4369-ac12-cacd959b15f7","CountryName":"Norway","Latitude":"62.465188","Longitude":"6.351728","Address":"Moa","PostalCode":"6018","PostalPlace":"Ålesund"},{"Name":"Tønsberg","Location":{"lat":59.269589,"lon":10.412434},"Id":"543acc31-7755-4a49-83d9-16da851a40fd","CountryName":"Norway","Latitude":"59.269589","Longitude":"10.412434","Address":null,"PostalCode":"3110","PostalPlace":"Tønsberg"},{"Name":"Sandefjord","Location":{"lat":59.131569,"lon":10.224356},"Id":"d7861282-8f60-45fa-aae6-d33e174c2281","CountryName":"Norway","Latitude":"59.131569","Longitude":"10.224356","Address":"Jernbaneallèen 21","PostalCode":"3210","PostalPlace":"Sandefjord"},{"Name":"Sandvika","Location":{"lat":59.890111,"lon":10.520381},"Id":"da923ed3-2f5f-4b96-ac76-8c9f9110d4e2","CountryName":"Norway","Latitude":"59.890111","Longitude":"10.520381","Address":"Brodtkorpsgate 7","PostalCode":"1300","PostalPlace":"Sandvika"},{"Name":"Oslo","Location":{"lat":59.9432416,"lon":10.8354783},"Id":"9ec192cc-69a2-4517-89a7-b7b0fed85b0e","CountryName":"Norway","Latitude":"59.9432416","Longitude":"10.8354783","Address":"Erich Mogenssønsvei 38","PostalCode":"594","PostalPlace":"Oslo"},{"Name":"Sortland","Location":{"lat":68.694258,"lon":15.415901},"Id":"df175c87-a7a1-4d7d-8941-2c1d7905cc99","CountryName":"Norway","Latitude":"68.694258","Longitude":"15.415901","Address":"Strandgate 24","PostalCode":"8401","PostalPlace":"Sortland"},{"Name":"Sarpsborg","Location":{"lat":59.28333,"lon":11.10751},"Id":"aa10dad2-6469-45db-b4ec-49a980117c0b","CountryName":"Norway","Latitude":"59.28333","Longitude":"11.10751","Address":"Roald Amundsensgt. 36","PostalCode":"1701","PostalPlace":"Sarpsborg"},{"Name":"Oslo","Location":{"lat":59.962086,"lon":10.926028},"Id":"b18ec892-4e65-4b8c-b86f-9d39e9a24902","CountryName":"Norway","Latitude":"59.962086","Longitude":"10.926028","Address":"Stovner Senter 3","PostalCode":"985","PostalPlace":"Oslo"},{"Name":"Sandnes","Location":{"lat":58.876351,"lon":5.721814},"Id":"45c1be19-503d-421f-b3dc-625f4d7abf35","CountryName":"Norway","Latitude":"58.876351","Longitude":"5.721814","Address":"Gamle Stokkavei 1","PostalCode":"4313","PostalPlace":"Sandnes"},{"Name":"Orkanger","Location":{"lat":63.3022559,"lon":9.8433862},"Id":"4707c37e-4e13-4d72-b51b-fbd8c3e4b44c","CountryName":"Norway","Latitude":"63.3022559","Longitude":"9.8433862","Address":"Tverradkomsten 60","PostalCode":"7300","PostalPlace":"Orkanger"},{"Name":"Oslo","Location":{"lat":59.912463,"lon":10.752607},"Id":"368a49ad-984d-4473-b20d-b5b2948ccf34","CountryName":"Norway","Latitude":"59.912463","Longitude":"10.752607","Address":"Stenersgate 1","PostalCode":"184","PostalPlace":"Oslo"},{"Name":"Narvik","Location":{"lat":68.441258,"lon":17.435295},"Id":"deb6c6bb-03b4-4db5-8427-98eaf9e2ac65","CountryName":"Norway","Latitude":"68.441258","Longitude":"17.435295","Address":"Kongensgate  66","PostalCode":"8514","PostalPlace":"Narvik"},{"Name":"Førde","Location":{"lat":61.4535792,"lon":5.8496685},"Id":"ae249a5c-6e20-4315-acd7-86cb37eadec8","CountryName":"Norway","Latitude":"61.4535792","Longitude":"5.8496685","Address":"Elvegården, Naustedalsvegen 1B","PostalCode":"6800","PostalPlace":"Førde"},{"Name":"Lierskogen","Location":{"lat":59.8112927,"lon":10.3058456},"Id":"35a5dfb6-da86-49c5-aeb3-4b5ea97c7076","CountryName":"Norway","Latitude":"59.8112927","Longitude":"10.3058456","Address":"Drammensveien 201","PostalCode":"3420","PostalPlace":"Lierskogen"},{"Name":"Rolvsøy","Location":{"lat":59.251032,"lon":10.99229},"Id":"c2a14420-1aac-4ac3-a609-38a1ca653856","CountryName":"Norway","Latitude":"59.251032","Longitude":"10.99229","Address":"Dikeveien 26","PostalCode":"1661","PostalPlace":"Rolvsøy"},{"Name":"Bodø","Location":{"lat":67.276772,"lon":14.417827},"Id":"140405b4-5f19-44d6-bc0c-9473ec58bf83","CountryName":"Norway","Latitude":"67.276772","Longitude":"14.417827","Address":"Stormyra","PostalCode":"8008","PostalPlace":"Bodø"},{"Name":"Namsos","Location":{"lat":64.4677041,"lon":11.4916013},"Id":"949b3611-eda7-4d30-80ce-c7a5000fb04d","CountryName":"Norway","Latitude":"64.4677041","Longitude":"11.4916013","Address":"Verftsgata 4","PostalCode":"7801","PostalPlace":"Namsos"},{"Name":"Bergen","Location":{"lat":60.296214,"lon":5.330215},"Id":"19b2d591-145a-4260-a4bb-5c15709b0eae","CountryName":"Norway","Latitude":"60.296214","Longitude":"5.330215","Address":"Laguneveien 1","PostalCode":"5239","PostalPlace":"Bergen"},{"Name":"Strømmen","Location":{"lat":59.947286,"lon":11.007332},"Id":"b8a7329e-8fee-4ad5-b1d0-1559ccd8ec59","CountryName":"Norway","Latitude":"59.947286","Longitude":"11.007332","Address":"Støperiveien 5","PostalCode":"2010","PostalPlace":"Strømmen"},{"Name":"Straume","Location":{"lat":60.3489586,"lon":5.2918036},"Id":"acb1dee3-260c-4703-8e81-01bbcc499f57","CountryName":"Norway","Latitude":"60.3489586","Longitude":"5.2918036","Address":"Folke Bernadottesv. 52","PostalCode":"5147","PostalPlace":"Straume"},{"Name":"Trondheim","Location":{"lat":63.430363,"lon":10.393717},"Id":"bfb552da-438c-4c52-b7ff-e9a606aac734","CountryName":"Norway","Latitude":"63.430363","Longitude":"10.393717","Address":"Kongengsgt. 9","PostalCode":"7013","PostalPlace":"Trondheim"},{"Name":"Stavanger","Location":{"lat":58.9706574,"lon":5.735337},"Id":"6b95a1ea-3657-4825-803a-a7b7d758a4f9","CountryName":"Norway","Latitude":"58.9706574","Longitude":"5.735337","Address":"Klubbgaten 5","PostalCode":"4013","PostalPlace":"Stavanger"},{"Name":"Stathelle","Location":{"lat":59.0450169,"lon":9.6943961},"Id":"8e18654e-d92f-44e7-8209-f113aa2481a7","CountryName":"Norway","Latitude":"59.0450169","Longitude":"9.6943961","Address":"Gangveien 10","PostalCode":"3960","PostalPlace":"Stathelle"},{"Name":"Stavanger","Location":{"lat":58.9829236,"lon":5.6738134},"Id":"116e2fec-3abf-4c4d-8a3a-6a6f6fbc968e","CountryName":"Norway","Latitude":"58.9829236","Longitude":"5.6738134","Address":"Tastatunet 4","PostalCode":"4027","PostalPlace":"Stavanger"},{"Name":"Oslo","Location":{"lat":59.9239185,"lon":10.7590992},"Id":"63f5397f-9fa5-47c9-8ea9-0072a48307bf","CountryName":"Norway","Latitude":"59.9239185","Longitude":"10.7590992","Address":"Thorvald Meyers gate 51","PostalCode":"555","PostalPlace":"Oslo"},{"Name":"Rasta","Location":{"lat":59.918569,"lon":10.9522242},"Id":"d29baba7-0aa5-408f-bff7-267eb082c8a3","CountryName":"Norway","Latitude":"59.918569","Longitude":"10.9522242","Address":"Gamleveien 88","PostalCode":"1476","PostalPlace":"Rasta"},{"Name":"Porsgrunn","Location":{"lat":59.1382891,"lon":9.6423722},"Id":"3f507bc4-61c2-4852-b94c-20f2672c81f1","CountryName":"Norway","Latitude":"59.1382891","Longitude":"9.6423722","Address":"Kulltangvegen 70","PostalCode":"3921","PostalPlace":"Porsgrunn"},{"Name":"Oslo","Location":{"lat":59.913087,"lon":10.737694},"Id":"f52c5735-7c23-408f-992b-db0a0d1530eb","CountryName":"Norway","Latitude":"59.913087","Longitude":"10.737694","Address":"Stortingsgaten 10","PostalCode":"161","PostalPlace":"Oslo"},{"Name":"Oslo","Location":{"lat":59.913846,"lon":10.747414},"Id":"95c7d240-ad99-4265-9717-531096811750","CountryName":"Norway","Latitude":"59.913846","Longitude":"10.747414","Address":"Torggata  6","PostalCode":"181","PostalPlace":"Oslo"},{"Name":"Ålesund","Location":{"lat":62.472164,"lon":6.15947},"Id":"cb87b767-bac3-412b-8048-1d1ad6fe224b","CountryName":"Norway","Latitude":"62.472164","Longitude":"6.15947","Address":"Grimmergata 1","PostalCode":"6002","PostalPlace":"Ålesund"},{"Name":"Trondheim","Location":{"lat":63.4303558,"lon":10.3990414},"Id":"ceba9558-66d7-44ff-af4a-72ccae54db33","CountryName":"Norway","Latitude":"63.4303558","Longitude":"10.3990414","Address":"Kongens gate 8","PostalCode":"7011","PostalPlace":"Trondheim"},{"Name":"Sogndal","Location":{"lat":61.2321658,"lon":7.1036529},"Id":"d34eb12c-fde5-46bd-8e67-432e75faddcc","CountryName":"Norway","Latitude":"61.2321658","Longitude":"7.1036529","Address":"Hovevegen 6","PostalCode":"6856","PostalPlace":"Sogndal"},{"Name":"Trondheim","Location":{"lat":63.432528,"lon":10.39601},"Id":"846e589a-1b71-4b50-b7ef-5e8141d637ed","CountryName":"Norway","Latitude":"63.432528","Longitude":"10.39601","Address":"Jomfrugata 5","PostalCode":"7011","PostalPlace":"Trondheim"},{"Name":"Karmsund","Location":{"lat":59.3773467,"lon":5.3070997},"Id":"1216bb13-d65c-4b13-b133-4f85cc5da794","CountryName":"Norway","Latitude":"59.3773467","Longitude":"5.3070997","Address":"Austbøveien 16","PostalCode":"5542","PostalPlace":"Karmsund"},{"Name":"Asker","Location":{"lat":59.835142,"lon":10.433242},"Id":"d33d02bc-40da-4bd1-bc14-9174f2886e2a","CountryName":"Norway","Latitude":"59.835142","Longitude":"10.433242","Address":"Knut Askersvei 26","PostalCode":"1383","PostalPlace":"Asker"},{"Name":"Oslo","Location":{"lat":59.9034164,"lon":10.8211958},"Id":"2cb06144-80a0-4a54-868a-0db865bb97aa","CountryName":"Norway","Latitude":"59.9034164","Longitude":"10.8211958","Address":"Østensjøveien 79","PostalCode":"667","PostalPlace":"Oslo"},{"Name":"Kolbotn","Location":{"lat":59.8099435,"lon":10.7992378},"Id":"04a380eb-aa24-4593-8f0f-6e3eca745618","CountryName":"Norway","Latitude":"59.8099435","Longitude":"10.7992378","Address":"Strandliveien 6","PostalCode":"1410","PostalPlace":"Kolbotn"},{"Name":"Askim","Location":{"lat":59.5828007,"lon":11.1658602},"Id":"c6802001-e166-41b4-9793-c260310078e4","CountryName":"Norway","Latitude":"59.5828007","Longitude":"11.1658602","Address":"Eidsbergveien 7","PostalCode":"1830","PostalPlace":"Askim"},{"Name":"Halden","Location":{"lat":59.1215105,"lon":11.3833722},"Id":"cd87f787-7889-46c0-8f2d-3e0b0009abf5","CountryName":"Norway","Latitude":"59.1215105","Longitude":"11.3833722","Address":"Walkers gate  4","PostalCode":"1771","PostalPlace":"Halden"},{"Name":"Arendal","Location":{"lat":58.4588415,"lon":8.7617674},"Id":"677d4349-3eb0-410c-98f4-0fcb633e35fa","CountryName":"Norway","Latitude":"58.4588415","Longitude":"8.7617674","Address":"Vesterveien 6","PostalCode":"4836","PostalPlace":"Arendal"},{"Name":"Oslo","Location":{"lat":59.9139371,"lon":10.7432154},"Id":"89ef61e3-607f-4092-baf2-587682d61053","CountryName":"Norway","Latitude":"59.9139371","Longitude":"10.7432154","Address":"Grensen 13","PostalCode":"159","PostalPlace":"Oslo"},{"Name":"Oslo","Location":{"lat":59.912013442262165,"lon":10.745660727508493},"Id":"da95dc58-2713-46ef-89a3-a95f3c1c942b","CountryName":"Norway","Latitude":"59.912013442262165","Longitude":"10.745660727508493","Address":"Karl Johans gate 12","PostalCode":"154","PostalPlace":"Oslo"},{"Name":"Haugesund","Location":{"lat":59.3951807,"lon":5.3317479},"Id":"cf69b799-8a93-4b14-a1c1-7fd438262cdb","CountryName":"Norway","Latitude":"59.3951807","Longitude":"5.3317479","Address":"Longhammarveien 27","PostalCode":"5536","PostalPlace":"Haugesund"},{"Name":"Kristiansand","Location":{"lat":58.1454192,"lon":7.9937641},"Id":"987fdb15-b894-41fd-8b2f-2f2a78a7a490","CountryName":"Norway","Latitude":"58.1454192","Longitude":"7.9937641","Address":"Rådhusgata 7-9","PostalCode":"4611","PostalPlace":"Kristiansand"},{"Name":"Tiller","Location":{"lat":63.3619123,"lon":10.3789421},"Id":"75087f94-623a-4d6b-aa51-4393ddd92ee3","CountryName":"Norway","Latitude":"63.3619123","Longitude":"10.3789421","Address":"Østre Rosten 28","PostalCode":"7075","PostalPlace":"Tiller"},{"Name":"Tromsø","Location":{"lat":69.650024,"lon":18.955785},"Id":"bb4d84b4-590f-44fe-945b-1ca12877a7e9","CountryName":"Norway","Latitude":"69.650024","Longitude":"18.955785","Address":"Storgt. 74","PostalCode":"9008","PostalPlace":"Tromsø"},{"Name":"Tønsberg","Location":{"lat":59.2672786,"lon":10.4076936},"Id":"243a84d0-1198-410c-b5c0-d8b887a9e8a0","CountryName":"Norway","Latitude":"59.2672786","Longitude":"10.4076936","Address":"Storgaten 32","PostalCode":"3126","PostalPlace":"Tønsberg"},{"Name":"Steinkjer","Location":{"lat":64.011245,"lon":11.49163},"Id":"1d313f5e-7c6b-4aa9-af2a-1a2a2fe06292","CountryName":"Norway","Latitude":"64.011245","Longitude":"11.49163","Address":"Sjøfartsgata  6","PostalCode":"7725","PostalPlace":"Steinkjer"},{"Name":"Stavanger","Location":{"lat":58.9481784,"lon":5.741008},"Id":"6ad3ff0c-50fb-445f-9683-c46b3b6d4781","CountryName":"Norway","Latitude":"58.9481784","Longitude":"5.741008","Address":"Gartnerveien 16","PostalCode":"4016","PostalPlace":"Stavanger"},{"Name":"Levanger","Location":{"lat":63.7463571,"lon":11.3004934},"Id":"af3b64da-5c11-407a-912a-3a1c15ddc785","CountryName":"Norway","Latitude":"63.7463571","Longitude":"11.3004934","Address":"Mofjæra1 4","PostalCode":"7600","PostalPlace":"Levanger"},{"Name":"NYBORG","Location":{"lat":60.4694119,"lon":5.3232096000000411},"Id":"fd4e73d1-e8da-40fb-beab-93e709a3b8c6","CountryName":"Norway","Latitude":"60.4694119","Longitude":"5.323209600000041","Address":"Myrdalsvegen 2","PostalCode":"5130","PostalPlace":"NYBORG"},{"Name":"Drammen","Location":{"lat":59.7425313,"lon":10.1579766},"Id":"8ba53afb-6a2b-4b0b-9dc9-937b1096cea8","CountryName":"Norway","Latitude":"59.7425313","Longitude":"10.1579766","Address":"Guldlisten 35","PostalCode":"3048","PostalPlace":"Drammen"},{"Name":"Bryne","Location":{"lat":58.7355955,"lon":5.6401267},"Id":"26fc2343-3653-4ef0-a3a0-b28f7332517c","CountryName":"Norway","Latitude":"58.7355955","Longitude":"5.6401267","Address":"Jupiterveien 2","PostalCode":"4340","PostalPlace":"Bryne"},{"Name":"Alta","Location":{"lat":69.966176,"lon":23.272645},"Id":"8df8e7aa-33e8-4fdf-9c02-5d106b5d669b","CountryName":"Norway","Latitude":"69.966176","Longitude":"23.272645","Address":"Markedsgata 21-25","PostalCode":"9505","PostalPlace":"Alta"},{"Name":"Lørenskog","Location":{"lat":59.928051,"lon":10.958005},"Id":"556914b4-0b76-4272-b431-21de0ae6a7f2","CountryName":"Norway","Latitude":"59.928051","Longitude":"10.958005","Address":"Solheimveien 85","PostalCode":"1473","PostalPlace":"Lørenskog"},{"Name":"Lillestrøm","Location":{"lat":59.956849,"lon":11.050161},"Id":"19b1a65d-3c08-4a1c-a81b-c11b09138cd0","CountryName":"Norway","Latitude":"59.956849","Longitude":"11.050161","Address":"Torvet  6","PostalCode":"2000","PostalPlace":"Lillestrøm"},{"Name":"Mo i Rana","Location":{"lat":66.3110326,"lon":14.1356391},"Id":"03547587-9266-498c-9b90-bc5d266b251d","CountryName":"Norway","Latitude":"66.3110326","Longitude":"14.1356391","Address":"Fridtjof Nansens gate 21","PostalCode":"8622","PostalPlace":"Mo i Rana"},{"Name":"Gjøvik","Location":{"lat":60.800505,"lon":10.6937455},"Id":"adfdae36-b33b-4a54-9c34-437b7d9b181d","CountryName":"Norway","Latitude":"60.800505","Longitude":"10.6937455","Address":"Jernbanesvingen 6","PostalCode":"2821","PostalPlace":"Gjøvik"},{"Name":"Lillehammer","Location":{"lat":61.114781,"lon":10.4502328},"Id":"cab00d89-0448-453f-9b7d-a29b4667d1b8","CountryName":"Norway","Latitude":"61.114781","Longitude":"10.4502328","Address":"Strandpromenaden 85","PostalCode":"2609","PostalPlace":"Lillehammer"},{"Name":"Moss","Location":{"lat":59.446244,"lon":10.703235},"Id":"488da962-8d4c-42a0-9881-d523919cd669","CountryName":"Norway","Latitude":"59.446244","Longitude":"10.703235","Address":"Patterødveien 2","PostalCode":"1599","PostalPlace":"Moss"},{"Name":"Kongsvinger","Location":{"lat":60.192443,"lon":11.99867},"Id":"3a349be0-8c2d-464a-a42e-3b332ff08b56","CountryName":"Norway","Latitude":"60.192443","Longitude":"11.99867","Address":"Tommelstads gate 1","PostalCode":"2212","PostalPlace":"Kongsvinger"},{"Name":"Oslo","Location":{"lat":59.9257316,"lon":10.7222744},"Id":"045bc028-5cda-4bb7-b7e2-eafce75e2a26","CountryName":"Norway","Latitude":"59.9257316","Longitude":"10.7222744","Address":"Bogstadveien 22","PostalCode":"355","PostalPlace":"Oslo"},{"Name":"EGERSUND","Location":{"lat":58.4531158,"lon":6.0028125},"Id":"8cae6e2c-545c-4d21-afc3-7ea12fd31fce","CountryName":"Norway","Latitude":"58.4531158","Longitude":"6.0028125","Address":"Fabrikkgata 2","PostalCode":"4370","PostalPlace":"EGERSUND"},{"Name":"Moss","Location":{"lat":59.4354023,"lon":10.6609867},"Id":"1f5ab5fc-3d4a-4290-9094-687730c5be5a","CountryName":"Norway","Latitude":"59.4354023","Longitude":"10.6609867","Address":"Dronningensgate 3","PostalCode":"1530","PostalPlace":"Moss"},{"Name":"Trondheim","Location":{"lat":63.4436928,"lon":10.446525100000031},"Id":"a8d5ad9a-6177-48a2-93f6-3e6e62afd16a","CountryName":"Norway","Latitude":"63.4436928","Longitude":"10.44652510000003","Address":"Haakon VIIs gt 9","PostalCode":"7041","PostalPlace":"Trondheim"},{"Name":"Kristiansund","Location":{"lat":63.1107478,"lon":7.732515},"Id":"5f6983d1-8f1a-40d8-9a7b-35d1e1ce7c84","CountryName":"Norway","Latitude":"63.1107478","Longitude":"7.732515","Address":"Arnulf Øverlands gate 2-8","PostalCode":"6509","PostalPlace":"Kristiansund"},{"Name":"Kristiansand","Location":{"lat":58.179918,"lon":8.129543},"Id":"2dfa1b92-b369-49b8-958e-5926d67ab41c","CountryName":"Norway","Latitude":"58.179918","Longitude":"8.129543","Address":"Barstølveien 31 -  35","PostalCode":"4636","PostalPlace":"Kristiansand"},{"Name":"Horten","Location":{"lat":59.4153269,"lon":10.486214},"Id":"ef8ec9d9-43bc-496d-ae4a-204d4eaf93bb","CountryName":"Norway","Latitude":"59.4153269","Longitude":"10.486214","Address":"Teatergaten 6","PostalCode":"3187","PostalPlace":"Horten"},{"Name":"Hønefoss","Location":{"lat":60.1647531,"lon":10.2546553},"Id":"2ff9a4aa-32f3-4535-92f3-8360360db654","CountryName":"Norway","Latitude":"60.1647531","Longitude":"10.2546553","Address":"Kong Ringsgate 1","PostalCode":"3510","PostalPlace":"Hønefoss"},{"Name":"Harstad","Location":{"lat":68.8016653,"lon":16.5382895},"Id":"01025d68-496a-477a-891a-7ba3f20e8c74","CountryName":"Norway","Latitude":"68.8016653","Longitude":"16.5382895","Address":"Rikhard Kaarbølsplass 1","PostalCode":"9405","PostalPlace":"Harstad"},{"Name":"Hamar","Location":{"lat":60.798702,"lon":11.0467143},"Id":"68c7d721-bfb0-4209-97e0-b8efe8d7af84","CountryName":"Norway","Latitude":"60.798702","Longitude":"11.0467143","Address":"Arslak Bolts gate 48","PostalCode":"2316","PostalPlace":"Hamar"},{"Name":"Bergen","Location":{"lat":60.363223,"lon":5.233626},"Id":"47e7a046-97e8-4702-aadd-a141ae8135d1","CountryName":"Norway","Latitude":"60.363223","Longitude":"5.233626","Address":"Loddefjord Kjøpesenter","PostalCode":"5881","PostalPlace":"Bergen"},{"Name":"VINTERBRO","Location":{"lat":59.73659219240362,"lon":10.740581526141341},"Id":"d8be70c8-757f-410b-8d49-cd31fb67e099","CountryName":"Norway","Latitude":"59.73659219240362","Longitude":"10.74058152614134","Address":"Sjøskogvn. 7","PostalCode":"1407","PostalPlace":"VINTERBRO"},{"Name":"Mandal","Location":{"lat":58.0289466,"lon":7.4608451000000287},"Id":"46b5e0e5-9d5b-40e4-9b9d-05a46c0ad1a6","CountryName":"Norway","Latitude":"58.0289466","Longitude":"7.460845100000029","Address":"Marnaveien 33","PostalCode":"4517","PostalPlace":"Mandal"},{"Name":"Elverum","Location":{"lat":60.8779661,"lon":11.5658443},"Id":"41ea16bd-d6e0-4f30-880c-49096587e3c3","CountryName":"Norway","Latitude":"60.8779661","Longitude":"11.5658443","Address":"Kirkeveien 4","PostalCode":"2406","PostalPlace":"Elverum"},{"Name":"Jessheim","Location":{"lat":60.1427586,"lon":11.1718306},"Id":"24fd056d-151a-48e5-a11d-31ac3fdcc917","CountryName":"Norway","Latitude":"60.1427586","Longitude":"11.1718306","Address":"Storgata 6","PostalCode":"2050","PostalPlace":"Jessheim"},{"Name":"Bodø","Location":{"lat":67.2835873,"lon":14.3783824},"Id":"cacd944e-07d4-4f38-96bd-466d66b4bc9f","CountryName":"Norway","Latitude":"67.2835873","Longitude":"14.3783824","Address":"Storgata 5","PostalCode":"8006","PostalPlace":"Bodø"},{"Name":"Kristiansund","Location":{"lat":58.1551923,"lon":8.0250172},"Id":"35a1c30d-33f9-4e7b-84e8-773ae55408b7","CountryName":"Norway","Latitude":"58.1551923","Longitude":"8.0250172","Address":"Industriveien 17","PostalCode":"6502","PostalPlace":"Kristiansund"},{"Name":"Oslo","Location":{"lat":59.9275267,"lon":10.7195295},"Id":"dc6243fb-343e-4864-b77d-c56c3a0a5597","CountryName":"Norway","Latitude":"59.9275267","Longitude":"10.7195295","Address":"Bogstadveien 43","PostalCode":"366","PostalPlace":"Oslo"},{"Name":"Bergen","Location":{"lat":60.3939824,"lon":5.3238447},"Id":"d6c288c6-29d3-4565-9458-90abb84d3e97","CountryName":"Norway","Latitude":"60.3939824","Longitude":"5.3238447","Address":"Strandgate 53","PostalCode":"5004","PostalPlace":"Bergen"},{"Name":"Ørstad","Location":{"lat":62.199291,"lon":6.12445},"Id":"fa368fdb-d323-4a58-ae58-0c9d175ec18b","CountryName":"Norway","Latitude":"62.199291","Longitude":"6.12445","Address":"Vikerøyane 4","PostalCode":"1661","PostalPlace":"Ørstad"},{"Name":"Trondheim","Location":{"lat":63.4367993,"lon":10.4555477},"Id":"f4b9dcac-a207-4da6-b6e7-20bc881fac4d","CountryName":"Norway","Latitude":"63.4367993","Longitude":"10.4555477","Address":"Falkenborgvegen 5","PostalCode":"7044","PostalPlace":"Trondheim"},{"Name":"Sandnes","Location":{"lat":58.851578,"lon":5.721814},"Id":"dce976df-5839-42d1-ab74-406d47ff225b","CountryName":"Norway","Latitude":"58.851578","Longitude":"5.721814","Address":"Vågsgate 33","PostalCode":"4306","PostalPlace":"Sandnes"},{"Name":"Stavanger","Location":{"lat":58.971185,"lon":5.732251},"Id":"997d9272-5444-4ab6-9109-c79d19fc7fbd","CountryName":"Norway","Latitude":"58.971185","Longitude":"5.732251","Address":"Kirkegt. 1","PostalCode":"4006","PostalPlace":"Stavanger"},{"Name":"Tromsø","Location":{"lat":69.64617,"lon":18.954576},"Id":"89ee1b0d-11be-46db-8475-405fd29a482f","CountryName":"Norway","Latitude":"69.64617","Longitude":"18.954576","Address":"Nerstranda 9","PostalCode":"9008","PostalPlace":"Tromsø"},{"Name":"Tromsø","Location":{"lat":69.6745659,"lon":18.9210297},"Id":"aa5b8521-1ae5-4981-82dd-e9239b483df4","CountryName":"Norway","Latitude":"69.6745659","Longitude":"18.9210297","Address":"Heiloveien 4","PostalCode":"9015","PostalPlace":"Tromsø"},{"Name":"Trondheim","Location":{"lat":63.434983,"lon":10.412928},"Id":"00e60a1d-32df-4603-a0cd-c989600544d6","CountryName":"Norway","Latitude":"63.434983","Longitude":"10.412928","Address":"Beddingen 4","PostalCode":"7014","PostalPlace":"Trondheim"},{"Name":"Stord","Location":{"lat":59.77851,"lon":5.499297},"Id":"3315ad9b-79f0-4775-a6e8-61c4bf5169cb","CountryName":"Norway","Latitude":"59.77851","Longitude":"5.499297","Address":"Hamnegata 11","PostalCode":"5411","PostalPlace":"Stord"},{"Name":"Fredrikstad","Location":{"lat":59.214618,"lon":10.939839},"Id":"aef35adf-46dc-436c-b98f-ab99bf582233","CountryName":"Norway","Latitude":"59.214618","Longitude":"10.939839","Address":"Brochsgt. 7","PostalCode":"1607","PostalPlace":"Fredrikstad"},{"Name":"Hafrsfjord","Location":{"lat":58.9526951,"lon":5.6809623},"Id":"e8d1ac5d-3487-47d2-bd28-e4bd41b45ff6","CountryName":"Norway","Latitude":"58.9526951","Longitude":"5.6809623","Address":"Madlakrossen 5","PostalCode":"4042","PostalPlace":"Hafrsfjord"},{"Name":"Oslo","Location":{"lat":59.9176496,"lon":10.6363589},"Id":"d0ac39fb-f9cb-4f72-8669-7957541071ca","CountryName":"Norway","Latitude":"59.9176496","Longitude":"10.6363589","Address":"Lilleakerveien 16","PostalCode":"283","PostalPlace":"Oslo"},{"Name":"Kongsberg","Location":{"lat":59.6703384,"lon":9.651504},"Id":"8516f84e-84f1-4c58-96be-f07576c0d0bb","CountryName":"Norway","Latitude":"59.6703384","Longitude":"9.651504","Address":"Storgaten 28","PostalCode":"3611","PostalPlace":"Kongsberg"},{"Name":"Bergen","Location":{"lat":60.3921165,"lon":5.3238265},"Id":"82bee702-76c1-46f8-ae3c-98caa3418e1a","CountryName":"Norway","Latitude":"60.3921165","Longitude":"5.3238265","Address":"Torgallmenningen 14","PostalCode":"5014","PostalPlace":"Bergen"},{"Name":"Oslo","Location":{"lat":59.9138363,"lon":10.8418898},"Id":"d6c91d51-2dd6-4563-8a38-529fa49f3f41","CountryName":"Norway","Latitude":"59.9138363","Longitude":"10.8418898","Address":"Tvetenveien 150","PostalCode":"671","PostalPlace":"Oslo"},{"Name":"Oslo","Location":{"lat":59.9473011,"lon":10.7737942},"Id":"7b67e633-2f35-468d-bda3-33cbae121b9f","CountryName":"Norway","Latitude":"59.9473011","Longitude":"10.7737942","Address":"Vitaminveien 7","PostalCode":"485","PostalPlace":"Oslo"},{"Name":"Molde","Location":{"lat":62.73692,"lon":7.15897},"Id":"2c75a6eb-28f5-4876-8a2a-0a54afccacf3","CountryName":"Norway","Latitude":"62.73692","Longitude":"7.15897","Address":"Torget 1","PostalCode":"6413","PostalPlace":"Molde"},{"Name":"HAMAR","Location":{"lat":60.7949396,"lon":11.078641599999969},"Id":"dbe96384-6b66-4b8b-a47e-8ef2bda93575","CountryName":"Norway","Latitude":"60.7949396","Longitude":"11.078641599999969","Address":"Vangsveien 100","PostalCode":"2317","PostalPlace":"HAMAR"},{"Name":"Fornebu","Location":{"lat":59.8924059,"lon":10.6214751},"Id":"e4b72219-56c4-4a0c-acd6-2e826f380c58","CountryName":"Norway","Latitude":"59.8924059","Longitude":"10.6214751","Address":"Snarøyveien 55","PostalCode":"1364","PostalPlace":"Fornebu"},{"Name":"Norrköping","Location":{"lat":58.5874818,"lon":16.1887884},"Id":"f819913e-48c4-4c82-b501-0c912902941c","CountryName":"Sweden","Latitude":"58.5874818","Longitude":"16.1887884","Address":"Drottninggatan 41","PostalCode":"602 31","PostalPlace":"Norrköping"},{"Name":"Charlottenberg","Location":{"lat":59.8818857,"lon":12.2898056},"Id":"4e110b5b-f1aa-45e5-9543-26479a2d599a","CountryName":"Sweden","Latitude":"59.8818857","Longitude":"12.2898056","Address":"Helga Görlynsgata 1","PostalCode":"673 22","PostalPlace":"Charlottenberg"},{"Name":"Gävle","Location":{"lat":60.6740196,"lon":17.1409766},"Id":"84527f72-fb18-4687-b571-a2f7683e1246","CountryName":"Sweden","Latitude":"60.6740196","Longitude":"17.1409766","Address":"Drottninggatan 9","PostalCode":"803 20","PostalPlace":"Gävle"},{"Name":"Karlstad","Location":{"lat":59.3793759,"lon":13.5007372},"Id":"a326265a-0e67-4c8f-8489-b1600d7f1dfe","CountryName":"Sweden","Latitude":"59.3793759","Longitude":"13.5007372","Address":"Drottninggatan 18","PostalCode":"652 25","PostalPlace":"Karlstad"},{"Name":"Johanneshov","Location":{"lat":59.2942141,"lon":18.0793883},"Id":"8506266c-76f3-4468-a06c-e594858faa41","CountryName":"Sweden","Latitude":"59.2942141","Longitude":"18.0793883","Address":"Arenavägen 47","PostalCode":"121 77","PostalPlace":"Johanneshov"},{"Name":"Karlshamn","Location":{"lat":56.1705015,"lon":14.8608075},"Id":"a5364af0-3d21-4870-8ffa-ba7d8661d251","CountryName":"Sweden","Latitude":"56.1705015","Longitude":"14.8608075","Address":"Drottninggatan 57","PostalCode":"374 36","PostalPlace":"Karlshamn"},{"Name":"Trollhättan","Location":{"lat":58.3134122,"lon":12.3014009},"Id":"07564b20-72eb-4b7f-8d2c-67e5aa62bded","CountryName":"Sweden","Latitude":"58.3134122","Longitude":"12.3014009","Address":"Ladugårdsvägen  12","PostalCode":"461 70","PostalPlace":"Trollhättan"},{"Name":"Östersund","Location":{"lat":63.1768635,"lon":14.636923},"Id":"bdaa6c89-22ac-46b1-bee7-8d2fcca3a1a6","CountryName":"Sweden","Latitude":"63.1768635","Longitude":"14.636923","Address":"Prästgatan 38","PostalCode":"831 31","PostalPlace":"Östersund"},{"Name":"Örebro","Location":{"lat":59.2164725,"lon":15.137866},"Id":"2383554c-b1cf-4335-96f1-78db9735f083","CountryName":"Sweden","Latitude":"59.2164725","Longitude":"15.137866","Address":"Varuvägen 10","PostalCode":"700 10","PostalPlace":"Örebro"},{"Name":"Stockholm","Location":{"lat":59.3324644,"lon":18.0671895},"Id":"6bb5ac63-2dd0-4f31-a733-f406a2200485","CountryName":"Sweden","Latitude":"59.3324644","Longitude":"18.0671895","Address":"Hamngatan 37","PostalCode":"111 35","PostalPlace":"Stockholm"},{"Name":"Umeå","Location":{"lat":63.8247588,"lon":20.2642776},"Id":"3e115854-4d90-40c9-bfb4-bd3d8dd4484e","CountryName":"Sweden","Latitude":"63.8247588","Longitude":"20.2642776","Address":"Storgatan 55","PostalCode":"903 26","PostalPlace":"Umeå"},{"Name":"Skärholmen","Location":{"lat":59.2750065,"lon":17.9071592},"Id":"fe754b85-4cac-4251-a7d7-2c6644683b0e","CountryName":"Sweden","Latitude":"59.2750065","Longitude":"17.9071592","Address":"Byholmsgången 1-3","PostalCode":"127 48","PostalPlace":"Skärholmen"},{"Name":"Malmö","Location":{"lat":55.5823865,"lon":13.0031587},"Id":"325b465f-a3cc-413c-9427-2cec44171692","CountryName":"Sweden","Latitude":"55.5823865","Longitude":"13.0031587","Address":"Per Albin Hanssons väg 34F","PostalCode":"214 32","PostalPlace":"Malmö"},{"Name":"Växjö","Location":{"lat":56.8848277,"lon":14.7651728},"Id":"b5a7bd03-ddcf-43ad-9dad-7707d316de4d","CountryName":"Sweden","Latitude":"56.8848277","Longitude":"14.7651728","Address":"Hejaregatan 32","PostalCode":"352 46","PostalPlace":"Växjö"},{"Name":"Partille","Location":{"lat":57.7376384,"lon":12.1068985},"Id":"f0cc5736-5ac4-4d88-94ea-a11a62589b3a","CountryName":"Sweden","Latitude":"57.7376384","Longitude":"12.1068985","Address":"Nils Henrikssons väg 3","PostalCode":"433 35","PostalPlace":"Partille"},{"Name":"Eskilstuna","Location":{"lat":59.3717236,"lon":16.4688053},"Id":"5826e176-5b8e-4380-9979-4d640794209a","CountryName":"Sweden","Latitude":"59.3717236","Longitude":"16.4688053","Address":"Gunborg Nymans väg 2","PostalCode":"632 22","PostalPlace":"Eskilstuna"},{"Name":"Töcksfors","Location":{"lat":59.5066391,"lon":11.8430572},"Id":"9cc557b9-5cd9-44bc-9cf8-6a5cadf8f003","CountryName":"Sweden","Latitude":"59.5066391","Longitude":"11.8430572","Address":"Elverudsvägen","PostalCode":"670 10","PostalPlace":"Töcksfors"},{"Name":"Södertälje","Location":{"lat":59.195566,"lon":17.6281568},"Id":"439eb56c-d5c7-4790-810e-61c23627e2c5","CountryName":"Sweden","Latitude":"59.195566","Longitude":"17.6281568","Address":"Storgatan 4","PostalCode":"151 27","PostalPlace":"Södertälje"},{"Name":"Sollentuna","Location":{"lat":59.4282751,"lon":17.9526687},"Id":"69b776ac-8c05-4dae-bfcc-78f7bcc4c2ee","CountryName":"Sweden","Latitude":"59.4282751","Longitude":"17.9526687","Address":"Sollentunavägen 163","PostalCode":"191 47","PostalPlace":"Sollentuna"},{"Name":"Täby","Location":{"lat":59.4420974,"lon":18.0664595},"Id":"d251ecf7-610f-4a29-9ddc-7e2621089038","CountryName":"Sweden","Latitude":"59.4420974","Longitude":"18.0664595","Address":"Stortorget 279","PostalCode":"183 34","PostalPlace":"Täby"},{"Name":"Visby","Location":{"lat":57.6378432,"lon":18.2995965},"Id":"fbc76993-624b-40c0-b3c4-2326d100e58b","CountryName":"Sweden","Latitude":"57.6378432","Longitude":"18.2995965","Address":"Österväg 6","PostalCode":"621 45","PostalPlace":"Visby"},{"Name":"Stockholm","Location":{"lat":59.3359971,"lon":18.0704462},"Id":"254d41f2-efbd-4597-9825-3949b132a53e","CountryName":"Sweden","Latitude":"59.3359971","Longitude":"18.0704462","Address":"Kungsgatan 5","PostalCode":"111 43","PostalPlace":"Stockholm"},{"Name":"Linköping","Location":{"lat":58.40972,"lon":15.626894},"Id":"bb1d1449-fa12-46bc-9d75-92282228f83f","CountryName":"Sweden","Latitude":"58.40972","Longitude":"15.626894","Address":"Gränden","PostalCode":"582 19","PostalPlace":"Linköping"},{"Name":"Göteborg","Location":{"lat":57.7084607,"lon":11.9694972},"Id":"d46fe255-c77f-4e9a-b81b-96a457c80cb7","CountryName":"Sweden","Latitude":"57.7084607","Longitude":"11.9694972","Address":"Postgatan 26-32","PostalCode":"411 06","PostalPlace":"Göteborg"},{"Name":"Lund","Location":{"lat":55.7139224,"lon":13.1599079},"Id":"ba41c3bd-314e-4247-847d-7b76113d33d9","CountryName":"Sweden","Latitude":"55.7139224","Longitude":"13.1599079","Address":"Företagsvägen 10","PostalCode":"227 61","PostalPlace":"Lund"},{"Name":"Borlänge","Location":{"lat":60.4738512,"lon":15.4092515},"Id":"ccfa6274-d384-47c7-b31d-886845b18788","CountryName":"Sweden","Latitude":"60.4738512","Longitude":"15.4092515","Address":"Kupolen 53","PostalCode":"781 70","PostalPlace":"Borlänge"},{"Name":"Halmstad","Location":{"lat":56.6751481,"lon":12.858052},"Id":"9cb166bc-89ab-4db7-b20a-9d044ee11f28","CountryName":"Sweden","Latitude":"56.6751481","Longitude":"12.858052","Address":"Storgatan 17","PostalCode":"302 43","PostalPlace":"Halmstad"},{"Name":"Kista","Location":{"lat":59.4029865,"lon":17.9441285},"Id":"d1c7753e-d56d-4fe2-93b6-b5c02b5c814f","CountryName":"Sweden","Latitude":"59.4029865","Longitude":"17.9441285","Address":"Kista Galleria","PostalCode":"164 91","PostalPlace":"Kista"},{"Name":"STRØMSTAD","Location":{"lat":59.065251989382311,"lon":11.204720020294205},"Id":"a171367b-e614-47c1-b5f9-cb9da6f7982d","CountryName":"Sweden","Latitude":"59.06525198938231","Longitude":"11.204720020294205","Address":"Norby Köpcenter Mellersta","PostalCode":"45270","PostalPlace":"STRØMSTAD"},{"Name":"ÖDÅKRA","Location":{"lat":56.091873735376375,"lon":12.758155544427495},"Id":"b6461188-fe5e-42ea-89d4-b2d42c81e2f3","CountryName":"Sweden","Latitude":"56.091873735376375","Longitude":"12.758155544427495","Address":"Väla Centrum","PostalCode":"260 36","PostalPlace":"ÖDÅKRA"},{"Name":"Linköping","Location":{"lat":58.43291,"lon":15.588473},"Id":"1346d0ff-2292-41e0-8ab2-580740399e13","CountryName":"Sweden","Latitude":"58.43291","Longitude":"15.588473","Address":"Västra Svedengatan 7D","PostalCode":"581 28","PostalPlace":"Linköping"},{"Name":"Stockholm","Location":{"lat":59.3335278,"lon":18.0656418},"Id":"ceb7f74e-299f-49f5-8aee-dd7dcbffd403","CountryName":"Sweden","Latitude":"59.3335278","Longitude":"18.0656418","Address":"Sergelgången","PostalCode":"111 57","PostalPlace":"Stockholm"},{"Name":"Stockholm","Location":{"lat":59.3175543,"lon":18.071574},"Id":"c356ef21-0c8b-44ff-994e-96d123f810b4","CountryName":"Sweden","Latitude":"59.3175543","Longitude":"18.071574","Address":"Götgatan 32","PostalCode":"118 26","PostalPlace":"Stockholm"},{"Name":"Örebro","Location":{"lat":59.2710056,"lon":15.2122552},"Id":"18b47282-463c-4f13-8cdf-4306b1b57b7a","CountryName":"Sweden","Latitude":"59.2710056","Longitude":"15.2122552","Address":"Köpmansgatan 16","PostalCode":"702 10","PostalPlace":"Örebro"},{"Name":"Sundsvall","Location":{"lat":62.4471247,"lon":17.3358768},"Id":"25bf3d85-d064-4a9b-9188-4a9401ea6992","CountryName":"Sweden","Latitude":"62.4471247","Longitude":"17.3358768","Address":"Gesällvägen 1","PostalCode":"857 53","PostalPlace":"Sundsvall"},{"Name":"Uppsala","Location":{"lat":59.8581325,"lon":17.64208},"Id":"5039697a-7426-46cf-a48f-82e8e42ae520","CountryName":"Sweden","Latitude":"59.8581325","Longitude":"17.64208","Address":"Bredgränd 8","PostalCode":"753 20","PostalPlace":"Uppsala"},{"Name":"Göteborg","Location":{"lat":57.7043384,"lon":11.9660766},"Id":"36af4617-99ea-4add-89fa-87370eb68a58","CountryName":"Sweden","Latitude":"57.7043384","Longitude":"11.9660766","Address":"Kungsgatan 41","PostalCode":"411 15","PostalPlace":"Göteborg"},{"Name":"Göteborg","Location":{"lat":57.7057132,"lon":11.9712068},"Id":"61d715ee-7dc5-4f58-a11f-34680629214c","CountryName":"Sweden","Latitude":"57.7057132","Longitude":"11.9712068","Address":"Kungsgatan 58-60","PostalCode":"411 08","PostalPlace":"Göteborg"},{"Name":"Karlstad","Location":{"lat":59.3793759,"lon":13.5007372},"Id":"bac4964b-1d83-42b0-a56d-4b0a82738ba1","CountryName":"Sweden","Latitude":"59.3793759","Longitude":"13.5007372","Address":"Drottninggatan 18","PostalCode":"652 25","PostalPlace":"Karlstad"},{"Name":"Farsta","Location":{"lat":59.2424863,"lon":18.0896823},"Id":"fc300031-5a66-446b-b884-aee654964625","CountryName":"Sweden","Latitude":"59.2424863","Longitude":"18.0896823","Address":"Farstaplan 20","PostalCode":"123 47","PostalPlace":"Farsta"},{"Name":"Nacka","Location":{"lat":59.3126497,"lon":18.1625632},"Id":"e9daffcd-0e47-4256-8b3d-6a4191b9fa44","CountryName":"Sweden","Latitude":"59.3126497","Longitude":"18.1625632","Address":"Vikdalsvägen","PostalCode":"131 40","PostalPlace":"Nacka"},{"Name":"Malmö","Location":{"lat":55.5991748,"lon":13.0006154},"Id":"22a6fd7d-6eaf-4e4a-ad89-739783bd9c12","CountryName":"Sweden","Latitude":"55.5991748","Longitude":"13.0006154","Address":"Kärleksgatan 1","PostalCode":"211 45","PostalPlace":"Malmö"},{"Name":"Linköping","Location":{"lat":58.4100327,"lon":15.6235534},"Id":"fcbac63f-0be8-4454-a16e-18f340acfb4a","CountryName":"Sweden","Latitude":"58.4100327","Longitude":"15.6235534","Address":"Tannerforsgatan 2","PostalCode":"582 24","PostalPlace":"Linköping"},{"Name":"Linköping","Location":{"lat":58.4091771,"lon":15.6268613},"Id":"5de6c131-7de7-4adc-9d3d-853689d1abd4","CountryName":"Sweden","Latitude":"58.4091771","Longitude":"15.6268613","Address":"Nygatan 22","PostalCode":"582 19","PostalPlace":"Linköping"},{"Name":"Skövde","Location":{"lat":58.3905243,"lon":13.8461111},"Id":"37c71d51-e819-41dc-8217-308f4f10f476","CountryName":"Sweden","Latitude":"58.3905243","Longitude":"13.8461111","Address":"Hertig Johans Torg 4","PostalCode":"5411 30","PostalPlace":"Skövde"},{"Name":"UDDEVALLA","Location":{"lat":58.3555243,"lon":11.816305400000033},"Id":"b991e678-434f-47f7-958a-ecb7141c23e8","CountryName":"Sweden","Latitude":"58.3555243","Longitude":"11.816305400000033","Address":"Torp","PostalCode":"451 76","PostalPlace":"UDDEVALLA"},{"Name":"Kungsbacka","Location":{"lat":57.4915093,"lon":12.0750207},"Id":"238f6d4e-4655-4227-848f-f0dfb119b371","CountryName":"Sweden","Latitude":"57.4915093","Longitude":"12.0750207","Address":"Borgmästaregatan 5","PostalCode":"434 38","PostalPlace":"Kungsbacka"},{"Name":"Tanum","Location":{"lat":58.72116239999999,"lon":11.346728900000016},"Id":"90f36048-e143-4c89-a1a7-4cba13b318d9","CountryName":"Sweden","Latitude":"58.72116239999999","Longitude":"11.346728900000016","Address":"Brehogsvägen 5","PostalCode":"457 32","PostalPlace":"Tanum"},{"Name":"STOCKHOLM","Location":{"lat":59.332523890449792,"lon":18.066111087799072},"Id":"2c648dcf-fb68-4ece-ad5c-d93687f5d8e7","CountryName":"Sweden","Latitude":"59.33252389044979","Longitude":"18.066111087799072","Address":"Sergelgången","PostalCode":"111 57","PostalPlace":"STOCKHOLM"},{"Name":"Borlänge","Location":{"lat":60.4738512,"lon":15.4092515},"Id":"a877f0fc-711d-4d3a-b515-bc7bf194761f","CountryName":"Sweden","Latitude":"60.4738512","Longitude":"15.4092515","Address":"Kupolen 53","PostalCode":"781 70","PostalPlace":"Borlänge"},{"Name":"Malmö","Location":{"lat":55.595529,"lon":13.0029927},"Id":"186b1346-647f-4969-ad71-21533ab38e7d","CountryName":"Sweden","Latitude":"55.595529","Longitude":"13.0029927","Address":"Södra Förstadsgatan 41","PostalCode":"211 34","PostalPlace":"Malmö"},{"Name":"Skellefteå","Location":{"lat":64.7500853,"lon":20.9543996},"Id":"7bc81f74-e25f-4a53-ba5c-edba892e7f57","CountryName":"Sweden","Latitude":"64.7500853","Longitude":"20.9543996","Address":"Nygatan 50","PostalCode":"931 31","PostalPlace":"Skellefteå"},{"Name":"Västerås","Location":{"lat":59.6099764,"lon":16.4548071},"Id":"bdc59625-ef0d-4524-a0d0-1744ae5777f1","CountryName":"Sweden","Latitude":"59.6099764","Longitude":"16.4548071","Address":"Krankroksgatan 17","PostalCode":"721 38","PostalPlace":"Västerås"},{"Name":"Norrköping","Location":{"lat":58.5730548,"lon":16.2087103},"Id":"21e8afeb-34a9-40f7-9090-f6f331034755","CountryName":"Sweden","Latitude":"58.5730548","Longitude":"16.2087103","Address":"Lidaleden 8","PostalCode":"603 59","PostalPlace":"Norrköping"},{"Name":"Stockholm","Location":{"lat":59.3347686,"lon":18.0601086},"Id":"eadb1225-2491-42f9-842b-cf879754f00b","CountryName":"Sweden","Latitude":"59.3347686","Longitude":"18.0601086","Address":"Kungsgatan 54","PostalCode":"111 35","PostalPlace":"Stockholm"},{"Name":"Kalmar","Location":{"lat":56.6869844,"lon":16.3198073},"Id":"18ccbe64-f676-488f-8c4c-1f767a65b582","CountryName":"Sweden","Latitude":"56.6869844","Longitude":"16.3198073","Address":"Bilbyggarvägen 8","PostalCode":"393 56","PostalPlace":"Kalmar"},{"Name":"Jönköping","Location":{"lat":57.7733828,"lon":14.2022533},"Id":"e7edce04-1bde-42bc-9d4e-cacac031e603","CountryName":"Sweden","Latitude":"57.7733828","Longitude":"14.2022533","Address":"Kompanigatan 41","PostalCode":"553 05","PostalPlace":"Jönköping"},{"Name":"Karlskrona","Location":{"lat":56.162105,"lon":15.5835964},"Id":"22e369d8-27f1-414b-9296-60c825dbc21c","CountryName":"Sweden","Latitude":"56.162105","Longitude":"15.5835964","Address":"Borgmästaregatan 13","PostalCode":"371 35","PostalPlace":"Karlskrona"},{"Name":"Malmö","Location":{"lat":55.563615,"lon":12.9746158},"Id":"c585d3ca-09dd-4af4-9e90-4663aca3031e","CountryName":"Sweden","Latitude":"55.563615","Longitude":"12.9746158","Address":"Hyllie Boulevard 19","PostalCode":"215 32","PostalPlace":"Malmö"},{"Name":"Kalmar","Location":{"lat":56.6635342,"lon":16.363338},"Id":"6312babf-7f9e-4e04-b72d-a57b84a6b224","CountryName":"Sweden","Latitude":"56.6635342","Longitude":"16.363338","Address":"Storgatan 21","PostalCode":"392 32","PostalPlace":"Kalmar"},{"Name":"Luleå","Location":{"lat":65.5846668,"lon":22.1552419},"Id":"6395baed-2083-4e5e-9f10-520af4fdd5b8","CountryName":"Sweden","Latitude":"65.5846668","Longitude":"22.1552419","Address":"Storgatan 51","PostalCode":"972 31","PostalPlace":"Luleå"},{"Name":"Valbo","Location":{"lat":60.633282,"lon":16.994236},"Id":"1983fe0b-8e54-4a46-bef4-78e0c70e9409","CountryName":"Sweden","Latitude":"60.633282","Longitude":"16.994236","Address":"Valbo Köpcentrum","PostalCode":"818 02","PostalPlace":"Valbo"},{"Name":"Eskilstuna","Location":{"lat":59.3709365,"lon":16.5120886},"Id":"ac929942-bcf6-4d77-901d-49fd4439b4f4","CountryName":"Sweden","Latitude":"59.3709365","Longitude":"16.5120886","Address":"Kungsgatan 21","PostalCode":"632 20","PostalPlace":"Eskilstuna"},{"Name":"Haninge","Location":{"lat":59.204867,"lon":18.1512454},"Id":"b6844018-9754-4d6c-b007-fc55b402110e","CountryName":"Sweden","Latitude":"59.204867","Longitude":"18.1512454","Address":"Haninge Centrum","PostalCode":"136 46","PostalPlace":"Haninge"},{"Name":"PITEÅ","Location":{"lat":65.3173960352581,"lon":21.479318618774414},"Id":"ad1a9205-d82c-445a-b739-81a19a4e61d2","CountryName":"Sweden","Latitude":"65.3173960352581","Longitude":"21.479318618774414","Address":"Storgatan 54","PostalCode":"941 32","PostalPlace":"PITEÅ"},{"Name":"Västra Frölunda","Location":{"lat":57.6522123,"lon":11.9097728},"Id":"411e7bc6-f910-4a4b-b831-a96b5449d511","CountryName":"Sweden","Latitude":"57.6522123","Longitude":"11.9097728","Address":"Frölunda Torg","PostalCode":"421 44","PostalPlace":"Västra Frölunda"},{"Name":"Nyköping","Location":{"lat":58.7519655,"lon":17.0063026},"Id":"75709e4a-d92f-49e4-b7c9-6321d8985a9a","CountryName":"Sweden","Latitude":"58.7519655","Longitude":"17.0063026","Address":"Västra Storgatan 24-28","PostalCode":"611 32","PostalPlace":"Nyköping"},{"Name":"Örnsköldsvik","Location":{"lat":63.290885,"lon":18.713441},"Id":"afea8477-f20f-4132-a8c3-7d61513a259c","CountryName":"Sweden","Latitude":"63.290885","Longitude":"18.713441","Address":"Lasarettgatan 20","PostalCode":"891 33","PostalPlace":"Örnsköldsvik"},{"Name":"Växjö","Location":{"lat":56.8788647,"lon":14.8059454},"Id":"7c5f46b8-eff7-4cf4-bac5-899e4a7ab52b","CountryName":"Sweden","Latitude":"56.8788647","Longitude":"14.8059454","Address":"Storgatan 16","PostalCode":"352 31","PostalPlace":"Växjö"},{"Name":"Kristianstad","Location":{"lat":56.0290181,"lon":14.157453},"Id":"8ee276d9-486a-4d46-9b64-e4e681e5d59e","CountryName":"Sweden","Latitude":"56.0290181","Longitude":"14.157453","Address":"Östra Storgatan 42","PostalCode":"291 31","PostalPlace":"Kristianstad"},{"Name":"Västerås","Location":{"lat":59.6100052,"lon":16.5465008},"Id":"c843a663-43a9-4d47-9bdc-597a051718b7","CountryName":"Sweden","Latitude":"59.6100052","Longitude":"16.5465008","Address":"Vasagatan 10","PostalCode":"722 12","PostalPlace":"Västerås"},{"Name":"Uppsala","Location":{"lat":59.8770191,"lon":17.6726587},"Id":"bc9537f3-6269-4b36-ac3d-cc0be4c35009","CountryName":"Sweden","Latitude":"59.8770191","Longitude":"17.6726587","Address":"Marknadsgatan 1","PostalCode":"754 31","PostalPlace":"Uppsala"},{"Name":"Wien","Location":{"lat":48.2080507,"lon":16.2176642},"Id":"d20fd6b7-6ba5-4ec5-9c1d-1c547ec45451","CountryName":"Austria","Latitude":"48.2080507","Longitude":"16.2176642","Address":"Albert Schweitser Gasse  6","PostalCode":"1140","PostalPlace":"Wien"},{"Name":"Seiersberg","Location":{"lat":47.0114643,"lon":15.4086898},"Id":"7cc984df-9ad5-4e89-9658-d800e3cfbae2","CountryName":"Austria","Latitude":"47.0114643","Longitude":"15.4086898","Address":"Shopping City Seiersberg 1","PostalCode":"8055","PostalPlace":"Seiersberg"},{"Name":"Wien","Location":{"lat":48.2080507,"lon":16.2176642},"Id":"b65828e2-61ef-4ca1-bc74-110116b3770e","CountryName":"Austria","Latitude":"48.2080507","Longitude":"16.2176642","Address":"Mariahilfer Straße 76","PostalCode":"1070","PostalPlace":"Wien"},{"Name":"Wiener Neustadt","Location":{"lat":47.8193767,"lon":16.2170167},"Id":"4c9dbe85-ce78-47fe-8760-ae07f3476b5f","CountryName":"Austria","Latitude":"47.8193767","Longitude":"16.2170167","Address":"Zehnergürtel","PostalCode":"2700","PostalPlace":"Wiener Neustadt"},{"Name":"Ried","Location":{"lat":48.2073594,"lon":13.485597},"Id":"f2106f31-2cbe-4c03-a8ef-3e259db96455","CountryName":"Austria","Latitude":"48.2073594","Longitude":"13.485597","Address":"Dr.Franz-Berger-Strasse 1","PostalCode":"4910","PostalPlace":"Ried"},{"Name":"Wien","Location":{"lat":48.2634661,"lon":16.4530809},"Id":"236b3fdf-f1f0-4866-8f95-af6a96795688","CountryName":"Austria","Latitude":"48.2634661","Longitude":"16.4530809","Address":"Wagramer Strasse 195","PostalCode":"1210","PostalPlace":"Wien"},{"Name":"Wien","Location":{"lat":48.1695214,"lon":16.4717968},"Id":"1ec2d416-8baa-4ffd-8ff7-3475699c3343","CountryName":"Austria","Latitude":"48.1695214","Longitude":"16.4717968","Address":"Landwehrstrasse  6","PostalCode":"1110","PostalPlace":"Wien"}]